[
  {"name":"Abbey Road","lat":51.531952,"lng":0.003723},
  {"name":"Acton Central","lat":51.508757,"lng":-0.26343},
  {"name":"Acton Main Line","lat":51.516886,"lng":-0.26769},
  {"name":"Acton Town","lat":51.507316,"lng":-0.265823},
  {"name":"Angel","lat":51.532448,"lng":-0.105726},
  {"name":"Archway","lat":51.565311,"lng":-0.135017},
  {"name":"Arsenal","lat":51.558125,"lng":-0.10506},
  {"name":"Baker Street","lat":51.522736,"lng":-0.156724},
  {"name":"Balham","lat":51.443453,"lng":-0.152737},
  {"name":"Bank","lat":51.513072,"lng":-0.088782},
  {"name":"Barbican","lat":51.520269,"lng":-0.097758},
  {"name":"Barons Court","lat":51.490329,"lng":-0.214415},
  {"name":"Battersea Park","lat":51.479869,"lng":-0.148429},
  {"name":"Battersea Power Station","lat":51.481651,"lng":-0.144295},
  {"name":"Bayswater","lat":51.512066,"lng":-0.187862},
  {"name":"Beckton","lat":51.514969,"lng":0.063578},
  {"name":"Beckton Park","lat":51.508793,"lng":0.057851},
  {"name":"Bermondsey","lat":51.499914,"lng":-0.064116},
  {"name":"Bethnal Green","lat":51.527105,"lng":-0.055023},
  {"name":"Blackfriars","lat":51.511943,"lng":-0.103477},
  {"name":"Blackheath","lat":51.466772,"lng":0.009007},
  {"name":"Blackhorse Road","lat":51.586889,"lng":-0.04069},
  {"name":"Blackwall","lat":51.507563,"lng":-0.005463},
  {"name":"Bond Street","lat":51.514412,"lng":-0.150463},
  {"name":"Borough","lat":51.501009,"lng":-0.094447},
  {"name":"Bow Church","lat":51.527069,"lng":-0.021069},
  {"name":"Bow Road","lat":51.527027,"lng":-0.024947},
  {"name":"Brent Cross","lat":51.576617,"lng":-0.213007},
  {"name":"Brent Cross West","lat":51.5774,"lng":-0.2126},
  {"name":"Brixton","lat":51.462618,"lng":-0.114888},
  {"name":"Brockley","lat":51.465017,"lng":-0.037208},
  {"name":"Bromley-by-Bow","lat":51.52301,"lng":-0.011432},
  {"name":"Brondesbury","lat":51.536207,"lng":-0.204969},
  {"name":"Brondesbury Park","lat":51.540325,"lng":-0.210474},
  {"name":"Bruce Grove","lat":51.594011,"lng":-0.070399},
  {"name":"Caledonian Road","lat":51.547885,"lng":-0.118361},
  {"name":"Caledonian Road and Barnsbury","lat":51.543284,"lng":-0.115205},
  {"name":"Cambridge Heath","lat":51.53206,"lng":-0.057203},
  {"name":"Camden Road","lat":51.541851,"lng":-0.139203},
  {"name":"Camden Town","lat":51.539969,"lng":-0.142452},
  {"name":"Canada Water","lat":51.498168,"lng":-0.050807},
  {"name":"Canary Wharf","lat":51.503578,"lng":-0.019467},
  {"name":"Canning Town","lat":51.51387,"lng":0.008306},
  {"name":"Cannon Street","lat":51.511362,"lng":-0.090251},
  {"name":"Canonbury","lat":51.548188,"lng":-0.092574},
  {"name":"Catford","lat":51.444265,"lng":-0.026538},
  {"name":"Catford Bridge","lat":51.444695,"lng":-0.024822},
  {"name":"Chalk Farm","lat":51.544149,"lng":-0.153733},
  {"name":"Chancery Lane","lat":51.518494,"lng":-0.111962},
  {"name":"Charing Cross","lat":51.508358,"lng":-0.124803},
  {"name":"Charlton","lat":51.486835,"lng":0.030942},
  {"name":"Chiswick","lat":51.474085,"lng":-0.268647},
  {"name":"Chiswick Park","lat":51.494683,"lng":-0.267155},
  {"name":"City Thameslink","lat":51.513982,"lng":-0.103811},
  {"name":"Clapham Common","lat":51.461822,"lng":-0.13878},
  {"name":"Clapham High Street","lat":51.46476,"lng":-0.130777},
  {"name":"Clapham Junction","lat":51.464271,"lng":-0.170098},
  {"name":"Clapham North","lat":51.464916,"lng":-0.130376},
  {"name":"Clapham South","lat":51.454007,"lng":-0.147559},
  {"name":"Clapton","lat":51.557437,"lng":-0.059553},
  {"name":"Colliers Wood","lat":51.415456,"lng":-0.187982},
  {"name":"Covent Garden","lat":51.51301,"lng":-0.124114},
  {"name":"Crofton Park","lat":51.442649,"lng":-0.036049},
  {"name":"Crossharbour and London Arena","lat":51.496548,"lng":-0.014847},
  {"name":"Crouch Hill","lat":51.571348,"lng":-0.100749},
  {"name":"Crystal Palace","lat":51.415504,"lng":-0.070527},
  {"name":"Custom House","lat":51.509396,"lng":0.037057},
  {"name":"Cutty Sark","lat":51.481822,"lng":-0.009934},
  {"name":"Cyprus","lat":51.508148,"lng":0.067526},
  {"name":"Dalston Junction","lat":51.546386,"lng":-0.075528},
  {"name":"Dalston Kingsland","lat":51.548947,"lng":-0.075735},
  {"name":"Denmark Hill","lat":51.464497,"lng":-0.088627},
  {"name":"Deptford","lat":51.475924,"lng":-0.025977},
  {"name":"Deptford Bridge","lat":51.472928,"lng":-0.023826},
  {"name":"Devons Road","lat":51.523392,"lng":-0.016875},
  {"name":"Dollis Hill","lat":51.552613,"lng":-0.227145},
  {"name":"Drayton Park","lat":51.553218,"lng":-0.103614},
  {"name":"Earl's Court","lat":51.491427,"lng":-0.193448},
  {"name":"Earlsfield","lat":51.443455,"lng":-0.187528},
  {"name":"East Acton","lat":51.516779,"lng":-0.246929},
  {"name":"East Finchley","lat":51.587177,"lng":-0.165107},
  {"name":"East Ham","lat":51.537986,"lng":0.050796},
  {"name":"East India","lat":51.508814,"lng":0.001547},
  {"name":"East Putney","lat":51.459602,"lng":-0.212703},
  {"name":"Elephant and Castle","lat":51.494516,"lng":-0.100855},
  {"name":"Elverson Road","lat":51.464478,"lng":-0.017014},
  {"name":"Embankment","lat":51.507361,"lng":-0.122165},
  {"name":"Essex Road","lat":51.545192,"lng":-0.099592},
  {"name":"Euston","lat":51.52814,"lng":-0.134021},
  {"name":"Euston Square","lat":51.525893,"lng":-0.13065},
  {"name":"Farringdon","lat":51.52014,"lng":-0.105546},
  {"name":"Fenchurch Street","lat":51.511337,"lng":-0.078217},
  {"name":"Finchley Road","lat":51.547183,"lng":-0.179124},
  {"name":"Finchley Road and Frognal","lat":51.549483,"lng":-0.185063},
  {"name":"Finsbury Park","lat":51.564177,"lng":-0.106569},
  {"name":"Forest Hill","lat":51.440359,"lng":-0.053569},
  {"name":"Fulham Broadway","lat":51.479736,"lng":-0.195064},
  {"name":"Gloucester Road","lat":51.494426,"lng":-0.183178},
  {"name":"Golders Green","lat":51.572291,"lng":-0.194302},
  {"name":"Goldhawk Road","lat":51.501874,"lng":-0.226862},
  {"name":"Goodge Street","lat":51.520577,"lng":-0.13442},
  {"name":"Gospel Oak","lat":51.555506,"lng":-0.149118},
  {"name":"Great Portland Street","lat":51.523782,"lng":-0.14409},
  {"name":"Green Park","lat":51.506685,"lng":-0.142759},
  {"name":"Greenwich","lat":51.478128,"lng":-0.014662},
  {"name":"Gunnersbury","lat":51.491382,"lng":-0.275408},
  {"name":"Hackney Central","lat":51.546128,"lng":-0.055989},
  {"name":"Hackney Downs","lat":51.548778,"lng":-0.062213},
  {"name":"Hackney Wick","lat":51.542714,"lng":-0.017567},
  {"name":"Haggerston","lat":51.540051,"lng":-0.074571},
  {"name":"Hammersmith","lat":51.493266,"lng":-0.222956},
  {"name":"Hampstead","lat":51.556408,"lng":-0.178234},
  {"name":"Hampstead Heath","lat":51.558093,"lng":-0.166476},
  {"name":"Harlesden","lat":51.536184,"lng":-0.256724},
  {"name":"Herne Hill","lat":51.453985,"lng":-0.100152},
  {"name":"Heron Quays","lat":51.501505,"lng":-0.019837},
  {"name":"High Street Kensington","lat":51.500989,"lng":-0.192246},
  {"name":"Highbury and Islington","lat":51.545986,"lng":-0.103595},
  {"name":"Highgate","lat":51.577697,"lng":-0.14625},
  {"name":"Hither Green","lat":51.44731,"lng":-0.00465},
  {"name":"Holborn","lat":51.51741,"lng":-0.120116},
  {"name":"Holland Park","lat":51.50768,"lng":-0.213534},
  {"name":"Holloway Road","lat":51.552773,"lng":-0.115954},
  {"name":"Homerton","lat":51.545919,"lng":-0.04401},
  {"name":"Honor Oak Park","lat":51.44508,"lng":-0.042881},
  {"name":"Hoxton","lat":51.531441,"lng":-0.079952},
  {"name":"Hyde Park Corner","lat":51.502619,"lng":-0.152602},
  {"name":"Island Gardens","lat":51.481089,"lng":-0.013469},
  {"name":"Kennington","lat":51.488228,"lng":-0.105491},
  {"name":"Kensal Green","lat":51.530372,"lng":-0.224802},
  {"name":"Kensal Rise","lat":51.534235,"lng":-0.215424},
  {"name":"Kensington Olympia","lat":51.498184,"lng":-0.210352},
  {"name":"Kentish Town","lat":51.550295,"lng":-0.140985},
  {"name":"Kentish Town West","lat":51.548286,"lng":-0.148892},
  {"name":"Kilburn","lat":51.547153,"lng":-0.204243},
  {"name":"Kilburn High Road","lat":51.540966,"lng":-0.196836},
  {"name":"Kilburn Park","lat":51.535378,"lng":-0.193756},
  {"name":"King George V","lat":51.500969,"lng":0.065358},
  {"name":"Kings Cross St Pancras","lat":51.530663,"lng":-0.12316},
  {"name":"Knightsbridge","lat":51.501516,"lng":-0.160728},
  {"name":"Ladbroke Grove","lat":51.516854,"lng":-0.210826},
  {"name":"Lambeth North","lat":51.498659,"lng":-0.11194},
  {"name":"Lancaster Gate","lat":51.51214,"lng":-0.175765},
  {"name":"Langdon Park","lat":51.521002,"lng":-0.012833},
  {"name":"Latimer Road","lat":51.513326,"lng":-0.217988},
  {"name":"Lea Bridge","lat":51.562034,"lng":-0.030689},
  {"name":"Leicester Square","lat":51.511471,"lng":-0.128156},
  {"name":"Lewisham","lat":51.465478,"lng":-0.013894},
  {"name":"Leyton","lat":51.556718,"lng":-0.004682},
  {"name":"Leyton Midland Road","lat":51.554912,"lng":-0.006241},
  {"name":"Limehouse","lat":51.512095,"lng":-0.039423},
  {"name":"Liverpool Street","lat":51.517877,"lng":-0.081577},
  {"name":"London Bridge","lat":51.504977,"lng":-0.086159},
  {"name":"London Fields","lat":51.540909,"lng":-0.055698},
  {"name":"Loughborough Junction","lat":51.463069,"lng":-0.099701},
  {"name":"Maida Vale","lat":51.528735,"lng":-0.185291},
  {"name":"Manor House","lat":51.569805,"lng":-0.095619},
  {"name":"Mansion House","lat":51.51207,"lng":-0.09468},
  {"name":"Marble Arch","lat":51.513534,"lng":-0.159001},
  {"name":"Marylebone","lat":51.522609,"lng":-0.163404},
  {"name":"Maze Hill","lat":51.478682,"lng":0.00574},
  {"name":"Mile End","lat":51.525146,"lng":-0.033106},
  {"name":"Moorgate","lat":51.518603,"lng":-0.088485},
  {"name":"Morden","lat":51.402316,"lng":-0.194839},
  {"name":"Morden Road","lat":51.406048,"lng":-0.18877},
  {"name":"Mornington Crescent","lat":51.534692,"lng":-0.138932},
  {"name":"New Cross","lat":51.476132,"lng":-0.032547},
  {"name":"New Cross Gate","lat":51.476888,"lng":-0.040064},
  {"name":"Nine Elms","lat":51.483578,"lng":-0.131969},
  {"name":"North Greenwich","lat":51.500479,"lng":0.003795},
  {"name":"Notting Hill Gate","lat":51.509503,"lng":-0.196914},
  {"name":"Nunhead","lat":51.462862,"lng":-0.059046},
  {"name":"Old Street","lat":51.525834,"lng":-0.087498},
  {"name":"Oval","lat":51.482005,"lng":-0.113065},
  {"name":"Oxford Circus","lat":51.515074,"lng":-0.14186},
  {"name":"Paddington","lat":51.515765,"lng":-0.177028},
  {"name":"Parsons Green","lat":51.47473,"lng":-0.200763},
  {"name":"Peckham Rye","lat":51.469725,"lng":-0.069538},
  {"name":"Piccadilly Circus","lat":51.509846,"lng":-0.134721},
  {"name":"Pimlico","lat":51.489077,"lng":-0.13338},
  {"name":"Poplar","lat":51.507316,"lng":-0.017498},
  {"name":"Putney","lat":51.461497,"lng":-0.216217},
  {"name":"Putney Bridge","lat":51.466852,"lng":-0.209801},
  {"name":"Queens Park","lat":51.534561,"lng":-0.204225},
  {"name":"Queenstown Road","lat":51.47173,"lng":-0.147854},
  {"name":"Queensway","lat":51.510093,"lng":-0.187487},
  {"name":"Ravenscourt Park","lat":51.494016,"lng":-0.234815},
  {"name":"Rectory Road","lat":51.558651,"lng":-0.063793},
  {"name":"Regents Park","lat":51.523492,"lng":-0.146344},
  {"name":"Richmond","lat":51.463221,"lng":-0.301258},
  {"name":"Rotherhithe","lat":51.501198,"lng":-0.048777},
  {"name":"Royal Albert","lat":51.509254,"lng":0.057274},
  {"name":"Russell Square","lat":51.523151,"lng":-0.124341},
  {"name":"Seven Sisters","lat":51.583276,"lng":-0.072456},
  {"name":"Shadwell","lat":51.511459,"lng":-0.057149},
  {"name":"Shepherd's Bush","lat":51.504975,"lng":-0.226714},
  {"name":"Shepherd's Bush Market","lat":51.505657,"lng":-0.218069},
  {"name":"Shoreditch High Street","lat":51.523048,"lng":-0.076435},
  {"name":"Sloane Square","lat":51.49254,"lng":-0.156401},
  {"name":"South Kensington","lat":51.494226,"lng":-0.173845},
  {"name":"South Wimbledon","lat":51.410181,"lng":-0.192516},
  {"name":"Southfields","lat":51.444527,"lng":-0.206606},
  {"name":"Southwark","lat":51.50421,"lng":-0.105542},
  {"name":"St James's Park","lat":51.499893,"lng":-0.133841},
  {"name":"St Johns Wood","lat":51.534786,"lng":-0.173661},
  {"name":"St Pauls","lat":51.514867,"lng":-0.098447},
  {"name":"Stamford Brook","lat":51.494672,"lng":-0.246741},
  {"name":"Stepney Green","lat":51.521453,"lng":-0.047271},
  {"name":"Stockwell","lat":51.472096,"lng":-0.122744},
  {"name":"Stoke Newington","lat":51.560218,"lng":-0.074887},
  {"name":"Stratford","lat":51.541752,"lng":-0.003458},
  {"name":"Stratford High Street","lat":51.53425,"lng":0.00342},
  {"name":"Stratford International","lat":51.545198,"lng":-0.000105},
  {"name":"Surbiton","lat":51.392745,"lng":-0.304113},
  {"name":"Surrey Quays","lat":51.492802,"lng":-0.047614},
  {"name":"Swiss Cottage","lat":51.543583,"lng":-0.174089},
  {"name":"Sydenham","lat":51.430034,"lng":-0.054565},
  {"name":"Temple","lat":51.510862,"lng":-0.114654},
  {"name":"Tooting","lat":51.415962,"lng":-0.168182},
  {"name":"Tooting Bec","lat":51.435695,"lng":-0.160241},
  {"name":"Tooting Broadway","lat":51.427271,"lng":-0.168052},
  {"name":"Tottenham Court Road","lat":51.516124,"lng":-0.130421},
  {"name":"Tottenham Hale","lat":51.588226,"lng":-0.059148},
  {"name":"Tower Gateway","lat":51.510383,"lng":-0.072477},
  {"name":"Tower Hill","lat":51.509819,"lng":-0.076317},
  {"name":"Tufnell Park","lat":51.556524,"lng":-0.137814},
  {"name":"Tulse Hill","lat":51.437073,"lng":-0.105843},
  {"name":"Turnham Green","lat":51.495022,"lng":-0.254396},
  {"name":"Turnpike Lane","lat":51.590059,"lng":-0.102296},
  {"name":"Twickenham","lat":51.448726,"lng":-0.329104},
  {"name":"Upton Park","lat":51.535454,"lng":0.035038},
  {"name":"Vauxhall","lat":51.485604,"lng":-0.12396},
  {"name":"Victoria","lat":51.496534,"lng":-0.144501},
  {"name":"Walthamstow Central","lat":51.583086,"lng":-0.019837},
  {"name":"Walthamstow Queens Road","lat":51.581936,"lng":-0.022786},
  {"name":"Wandsworth Common","lat":51.451183,"lng":-0.166685},
  {"name":"Wandsworth Road","lat":51.467499,"lng":-0.143569},
  {"name":"Wandsworth Town","lat":51.460631,"lng":-0.189985},
  {"name":"Wapping","lat":51.504829,"lng":-0.056098},
  {"name":"Warren Street","lat":51.52443,"lng":-0.138337},
  {"name":"Warwick Avenue","lat":51.523319,"lng":-0.183789},
  {"name":"Waterloo","lat":51.503223,"lng":-0.113587},
  {"name":"West Acton","lat":51.516947,"lng":-0.256994},
  {"name":"West Brompton","lat":51.486048,"lng":-0.195163},
  {"name":"West Ham","lat":51.528535,"lng":0.005155},
  {"name":"West Hampstead","lat":51.547456,"lng":-0.190908},
  {"name":"West Hampstead Thameslink","lat":51.547,"lng":-0.188},
  {"name":"West India Quay","lat":51.507218,"lng":-0.018958},
  {"name":"West Kensington","lat":51.490325,"lng":-0.206124},
  {"name":"Westminster","lat":51.501203,"lng":-0.124593},
  {"name":"White City","lat":51.511806,"lng":-0.224147},
  {"name":"Whitechapel","lat":51.519394,"lng":-0.059681},
  {"name":"Willesden Green","lat":51.549485,"lng":-0.222012},
  {"name":"Willesden Junction","lat":51.532309,"lng":-0.241781},
  {"name":"Wimbledon","lat":51.421273,"lng":-0.206561},
  {"name":"Wimbledon Park","lat":51.433578,"lng":-0.199832},
  {"name":"Wood Green","lat":51.597736,"lng":-0.109804},
  {"name":"Woodgrange Park","lat":51.550217,"lng":0.037028},
  {"name":"Woolwich","lat":51.490717,"lng":0.068994},
  {"name":"Woolwich Arsenal","lat":51.490319,"lng":0.069629},
  {"name":"Belsize Park","lat":51.550123,"lng":-0.167489},
  {"name":"Monument","lat":51.510258,"lng":-0.086026}
]
